branch_id,branch_name,city,address,lat,lon
B01,Відділення Вінниця,Вінниця,"м. Вінниця, вул. Соборна, 70",49.2331,28.4682
B02,Відділення Калинівка,Калинівка,"м. Калинівка, вул. Незалежності, 7",49.4533,28.5314
B03,Відділення Козятин,Козятин,"м. Козятин, вул. Героїв Майдану, 22",49.7158,28.8286
B04,Відділення Бершадь,Бершадь,"м. Бершадь, вул. Героїв України, 14",48.3667,29.5167
B05,Відділення Гайсин,Гайсин,"м. Гайсин, вул. Соборна, 71",48.8083,29.3892
B06,Відділення Немирів,Немирів,"м. Немирів, вул. Соборна, 142",48.9711,28.8431
